t[s]	emp[N]	Ixx[kgm2]	Iyy[kgm2]	Izz[kgm2]	massa[kg]	Xcg[m]	altitude[km]	long[deg]	gdLat[deg]	DLR_pitch[deg]	DLR_yaw[deg]	DLR_roll[deg]
0.000000000	0.000000000	3879.830000000	76706.110000000	76706.110000000	15643.550000000	-8.036000000	0.050000774	-44.367775000	-2.315994800	0.000000000	0.015486970	-49.999998969
0.010000000	54449.926166542	3879.709958630	76701.051216869	76701.051216869	15641.642923089	-8.035909996	0.050000774	-44.367775000	-2.315994800	0.000013483	0.015486970	-50.000029681
0.020000000	119839.544704340	3879.590042732	76695.991103865	76695.991103865	15639.735818847	-8.035819981	0.050000774	-44.367775000	-2.315994800	0.000026911	0.015486970	-50.000060393
0.030000000	175158.449372763	3879.470111686	76690.923783343	76690.923783343	15637.837640500	-8.035730783	0.050000779	-44.367775000	-2.315994800	0.000038801	0.015486965	-50.000091104
0.040000000	222173.088638121	3879.350071147	76685.866885018	76685.866885018	15635.927902978	-8.035640534	0.050000932	-44.367775000	-2.315994800	0.000052654	0.015486967	-50.000121816
0.050000000	262187.293992869	3879.229939322	76680.816123034	76680.816123034	15634.012240606	-8.035549750	0.050001521	-44.367775000	-2.315994800	0.000067557	0.015486971	-50.000152527
0.060000000	296434.028549451	3879.109934351	76675.756072316	76675.756072316	15632.106263212	-8.035459863	0.050002808	-44.367775000	-2.315994800	0.000080887	0.015486970	-50.000183239
0.070000000	325612.824697876	3878.989983577	76670.694508840	76670.694508840	15630.201862431	-8.035370076	0.050005008	-44.367775000	-2.315994800	0.000093913	0.015486969	-50.000213951
0.080000000	350399.281468530	3878.870027516	76665.635441389	76665.635441389	15628.294864870	-8.035280024	0.050008312	-44.367775000	-2.315994800	0.000107310	0.015486968	-50.000244662
0.090000000	371473.526063738	3878.750042410	76660.577055713	76660.577055713	15626.387146144	-8.035189971	0.050012876	-44.367775000	-2.315994800	0.000120819	0.015486969	-50.000275374
0.100000000	389394.918790275	3878.630029240	76655.518282220	76655.518282220	15624.479850934	-8.035100017	0.050018837	-44.367775000	-2.315994800	0.000134274	0.015486968	-50.000306086
0.110000000	404593.219356532	3878.510012538	76650.459176488	76650.459176488	15622.572990623	-8.035010046	0.050026309	-44.367775000	-2.315994800	0.000147664	0.015486968	-50.000336797
0.120000000	417465.613239739	3878.390003063	76645.399882574	76645.399882574	15620.666267837	-8.034920020	0.050035389	-44.367775000	-2.315994800	0.000161023	0.015486968	-50.000367509
0.130000000	428379.894822131	3878.269996715	76640.340572994	76640.340572994	15618.759164642	-8.034829979	0.050046162	-44.367775000	-2.315994800	0.000174426	0.015486968	-50.000398221
0.140000000	437637.173338037	3878.149987225	76635.281309261	76635.281309261	15616.851785687	-8.034739957	0.050058697	-44.367775000	-2.315994800	0.000187886	0.015486967	-50.000428933
0.150000000	445476.565082563	3878.029968147	76630.222050399	76630.222050399	15614.944779988	-8.034649976	0.050073055	-44.367775000	-2.315994800	0.000201366	0.015486967	-50.000459644
0.160000000	452110.546862411	3877.909955241	76625.162778394	76625.162778394	15613.038078770	-8.034560014	0.050089286	-44.367775000	-2.315994800	0.000214822	0.015486967	-50.000490356
0.170000000	457729.136119988	3877.789980471	76620.103498992	76620.103498992	15611.131019178	-8.034470012	0.050107433	-44.367775000	-2.315994800	0.000228214	0.015486966	-50.000521068
0.180000000	462498.924923110	3877.670027597	76615.044227453	76615.044227453	15609.223642641	-8.034379984	0.050127531	-44.367775000	-2.315994800	0.000241572	0.015486966	-50.000551780
0.190000000	466562.231488324	3877.550044423	76609.984981657	76609.984981657	15607.316541196	-8.034289992	0.050149612	-44.367775000	-2.315994800	0.000254977	0.015486965	-50.000582492
0.200000000	469974.924169706	3877.430027728	76604.925715280	76604.925715280	15605.409819242	-8.034200031	0.050173703	-44.367775000	-2.315994800	0.000268441	0.015486965	-50.000613204
0.210000000	472744.340949416	3877.310010248	76599.866352893	76599.866352893	15603.503201106	-8.034110040	0.050199826	-44.367775000	-2.315994800	0.000281921	0.015486964	-50.000643915
0.220000000	475089.251551465	3877.190001925	76594.807072968	76594.807072968	15601.596402801	-8.034020013	0.050227998	-44.367775000	-2.315994800	0.000295374	0.015486963	-50.000674627
0.230000000	477337.393717219	3877.069996013	76589.748188809	76589.748188809	15599.689185198	-8.033929976	0.050258237	-44.367775000	-2.315994800	0.000308761	0.015486962	-50.000705339
0.240000000	479332.015765772	3876.949985420	76584.689485238	76584.689485238	15597.781835017	-8.033839957	0.050290556	-44.367775000	-2.315994800	0.000322120	0.015486961	-50.000736051
0.250000000	480654.364996479	3876.829965345	76579.630447706	76579.630447706	15595.874911829	-8.033749981	0.050324967	-44.367775000	-2.315994800	0.000335531	0.015486960	-50.000766763
0.260000000	481511.688927711	3876.709955815	76574.571099610	76574.571099610	15593.968195122	-8.033660017	0.050361480	-44.367775000	-2.315994800	0.000348997	0.015486960	-50.000797475
0.270000000	482442.959636405	3876.589986519	76569.511770164	76569.511770164	15592.061063841	-8.033570008	0.050400100	-44.367775000	-2.315994800	0.000362478	0.015486959	-50.000828187
0.280000000	483446.211803024	3876.470032457	76564.452521397	76564.452521397	15590.153692383	-8.033479981	0.050440835	-44.367775000	-2.315994800	0.000375926	0.015486958	-50.000858899
0.290000000	484230.664865140	3876.350043441	76559.393267643	76559.393267643	15588.246651711	-8.033389997	0.050483692	-44.367775000	-2.315994800	0.000389303	0.015486958	-50.000889611
0.300000000	484713.120574493	3876.230024877	76554.333990716	76554.333990716	15586.339959067	-8.033300035	0.050528675	-44.367775000	-2.315994800	0.000402665	0.015486957	-50.000920323
0.310000000	484934.280314866	3876.110008781	76549.274709299	76549.274709299	15584.433333977	-8.033210038	0.050575789	-44.367775000	-2.315994800	0.000416103	0.015486956	-50.000951035
0.320000000	485031.441000643	3875.990001171	76544.215442418	76544.215442418	15582.526491356	-8.033120008	0.050625035	-44.367775000	-2.315994800	0.000429566	0.015486955	-50.000981747
0.330000000	485164.394247935	3875.869995051	76539.156199716	76539.156199716	15580.619221870	-8.033029972	0.050676414	-44.367775000	-2.315994800	0.000442955	0.015486954	-50.001012459
0.340000000	485303.647080853	3875.749983329	76534.096919245	76534.096919245	15578.711901375	-8.032939958	0.050729928	-44.367775000	-2.315994800	0.000456312	0.015486953	-50.001043171
0.350000000	485350.043643198	3875.629962767	76529.037547403	76529.037547403	15576.805049668	-8.032849986	0.050785577	-44.367775000	-2.315994800	0.000469730	0.015486952	-50.001073883
0.360000000	485328.524750536	3875.509957183	76523.978320778	76523.978320778	15574.898304650	-8.032760019	0.050843362	-44.367775000	-2.315994800	0.000483202	0.015486951	-50.001104595
0.370000000	485308.060210423	3875.389992817	76518.919507623	76518.919507623	15572.991075280	-8.032670005	0.050903285	-44.367775000	-2.315994800	0.000496680	0.015486950	-50.001135307
0.380000000	485297.373112259	3875.270036616	76513.860776614	76513.860776614	15571.083736550	-8.032579980	0.050965344	-44.367775000	-2.315994800	0.000510121	0.015486949	-50.001166019
0.390000000	485282.482133280	3875.150041959	76508.801659221	76508.801659221	15569.176884671	-8.032490002	0.051029540	-44.367775000	-2.315994800	0.000523496	0.015486948	-50.001196732
0.400000000	485257.424660096	3875.030022122	76503.742292615	76503.742292615	15567.270139271	-8.032400038	0.051095873	-44.367775000	-2.315994800	0.000536860	0.015486947	-50.001227444
0.410000000	485220.626989353	3874.910007457	76498.682983539	76498.682983539	15565.362924317	-8.032310036	0.051164345	-44.367775000	-2.315994800	0.000550286	0.015486946	-50.001258156
0.420000000	485178.256351316	3874.790000443	76493.623739552	76493.623739552	15563.455574450	-8.032220003	0.051234954	-44.367775000	-2.315994800	0.000563759	0.015486945	-50.001288868
0.430000000	485137.576734438	3874.669993995	76488.564480435	76488.564480435	15561.548615328	-8.032129968	0.051307701	-44.367775000	-2.315994800	0.000577235	0.015486944	-50.001319580
0.440000000	485097.951064560	3874.549981024	76483.505201275	76483.505201275	15559.641956594	-8.032039959	0.051382586	-44.367775000	-2.315994800	0.000590671	0.015486943	-50.001350292
0.450000000	485056.823102317	3874.429960441	76478.445921087	76478.445921087	15557.735312740	-8.031949992	0.051459610	-44.367775000	-2.315994800	0.000604042	0.015486941	-50.001381005
0.460000000	485014.406227032	3874.309959403	76473.386658897	76473.386658897	15555.828400173	-8.031860020	0.051538772	-44.367775000	-2.315994800	0.000617410	0.015486939	-50.001411717
0.470000000	484971.583037494	3874.189999254	76468.327416259	76468.327416259	15553.921076849	-8.031770000	0.051620072	-44.367775000	-2.315994800	0.000630841	0.015486938	-50.001442429
0.480000000	484928.606053785	3874.070039956	76463.268118714	76463.268118714	15552.013814038	-8.031679980	0.051703512	-44.367775000	-2.315994800	0.000644315	0.015486936	-50.001473141
0.490000000	484885.600692849	3873.950040051	76458.208746782	76458.208746782	15550.107026595	-8.031590007	0.051789090	-44.367775000	-2.315994800	0.000657790	0.015486935	-50.001503854
0.500000000	484842.870378296	3873.830019540	76453.149585379	76453.149585379	15548.200231356	-8.031500040	0.051876807	-44.367775000	-2.315994800	0.000671221	0.015486934	-50.001534566
0.510000000	484800.635443094	3873.710006263	76448.090829158	76448.090829158	15546.292960350	-8.031410033	0.051966663	-44.367775000	-2.315994800	0.000684589	0.015486932	-50.001565278
0.520000000	484758.640290571	3873.589999724	76443.032051840	76443.032051840	15544.385642853	-8.031319998	0.052058659	-44.367775000	-2.315994800	0.000697960	0.015486931	-50.001595991
0.530000000	484716.603112191	3873.469992829	76437.972862475	76437.972862475	15542.478739241	-8.031229965	0.052152794	-44.367775000	-2.315994800	0.000711396	0.015486930	-50.001626703
0.540000000	484674.533150346	3873.349978492	76432.913489294	76432.913489294	15540.572098118	-8.031139961	0.052249068	-44.367775000	-2.315994800	0.000724872	0.015486928	-50.001657415
0.550000000	484632.503721631	3873.229958446	76427.854199071	76427.854199071	15538.665435850	-8.031049997	0.052347481	-44.367775000	-2.315994800	0.000738347	0.015486927	-50.001688128
0.560000000	484590.592741744	3873.109962536	76422.794956736	76422.794956736	15536.758466988	-8.030960020	0.052448034	-44.367775000	-2.315994800	0.000751771	0.015486925	-50.001718840
0.570000000	484548.806581837	3872.990005705	76417.735692562	76417.735692562	15534.851113135	-8.030869996	0.052550728	-44.367775000	-2.315994800	0.000765130	0.015486923	-50.001749553
0.580000000	484506.937860359	3872.870042383	76412.676411799	76412.676411799	15532.943908218	-8.030779981	0.052655561	-44.367775000	-2.315994800	0.000778512	0.015486922	-50.001780265
0.590000000	484464.962907168	3872.750037795	76407.617133471	76407.617133471	15531.037168445	-8.030690012	0.052762534	-44.367775000	-2.315994800	0.000791973	0.015486920	-50.001810977
0.600000000	484423.468497759	3872.630017183	76402.557876533	76402.557876533	15529.130306209	-8.030600042	0.052871647	-44.367775000	-2.315994800	0.000805416	0.015486918	-50.001841690
0.610000000	484382.952728524	3872.510005183	76397.498630983	76397.498630983	15527.222961723	-8.030510029	0.052982901	-44.367775000	-2.315994800	0.000818782	0.015486916	-50.001872402
0.620000000	484343.424240482	3872.389998998	76392.439313657	76392.439313657	15525.315742857	-8.030419993	0.053096295	-44.367775000	-2.315994800	0.000832153	0.015486914	-50.001903115
0.630000000	484304.635161243	3872.269991537	76387.379953133	76387.379953133	15523.409003432	-8.030329962	0.053211829	-44.367775000	-2.315994800	0.000845596	0.015486913	-50.001933827
0.640000000	484265.915074459	3872.149975770	76382.320867572	76382.320867572	15521.502141608	-8.030239965	0.053329504	-44.367775000	-2.315994800	0.000859076	0.015486911	-50.001964540
0.650000000	484226.992978446	3872.029956859	76377.262149994	76377.262149994	15519.594815348	-8.030150002	0.053449321	-44.367775000	-2.315994800	0.000872546	0.015486909	-50.001995252
0.660000000	484188.605626162	3871.909966517	76372.203309362	76372.203309362	15517.687553697	-8.030060019	0.053571278	-44.367775000	-2.315994800	0.000885963	0.015486908	-50.002025965
0.670000000	484151.188412233	3871.790012047	76367.144059641	76367.144059641	15515.780718790	-8.029969992	0.053695376	-44.367775000	-2.315994800	0.000899324	0.015486906	-50.002056677
0.680000000	484114.288838077	3871.670043941	76362.084690620	76362.084690620	15513.874095632	-8.029879983	0.053821615	-44.367775000	-2.315994800	0.000912705	0.015486904	-50.002087390
0.690000000	484077.451223960	3871.550035268	76357.025416189	76357.025416189	15511.967398847	-8.029790018	0.053949996	-44.367775000	-2.315994800	0.000926153	0.015486902	-50.002118103
0.700000000	484040.424368896	3871.430015044	76351.966172750	76351.966172750	15510.060346618	-8.029700043	0.054080518	-44.367775000	-2.315994800	0.000939632	0.015486900	-50.002148815
0.710000000	484003.383973453	3871.310004201	76346.906904141	76346.906904141	15508.152971794	-8.029610025	0.054213183	-44.367775000	-2.315994800	0.000953099	0.015486898	-50.002179528
0.720000000	483967.212084707	3871.189998252	76341.847622404	76341.847622404	15506.245857301	-8.029519988	0.054347989	-44.367775000	-2.315994800	0.000966511	0.015486896	-50.002210240
0.730000000	483932.170226256	3871.069990104	76336.788346564	76336.788346564	15504.339150308	-8.029429960	0.054484937	-44.367775000	-2.315994800	0.000979870	0.015486894	-50.002240953
0.740000000	483897.383159385	3870.949972935	76331.729094930	76331.729094930	15502.432194379	-8.029339968	0.054624027	-44.367775000	-2.315994800	0.000993256	0.015486892	-50.002271666
0.750000000	483862.345010563	3870.829955758	76326.669843320	76326.669843320	15500.524816371	-8.029250007	0.054765261	-44.367775000	-2.315994800	0.001006708	0.015486889	-50.002302378
0.760000000	483827.284502851	3870.709971222	76321.610505771	76321.610505771	15498.617692077	-8.029160017	0.054908636	-44.367775000	-2.315994800	0.001020189	0.015486887	-50.002333091
0.770000000	483792.560250607	3870.590018153	76316.551168619	76316.551168619	15496.710985244	-8.029069989	0.055054154	-44.367775000	-2.315994800	0.001033654	0.015486885	-50.002363804
0.780000000	483758.616472036	3870.470044708	76311.492164560	76311.492164560	15494.804032442	-8.028979986	0.055201815	-44.367775000	-2.315994800	0.001047056	0.015486883	-50.002394516
0.790000000	483725.435637865	3870.350032549	76306.433466762	76306.433466762	15492.896670126	-8.028890023	0.055351620	-44.367775000	-2.315994800	0.001060411	0.015486881	-50.002425229
0.800000000	483692.382007287	3870.230013108	76301.374550887	76301.374550887	15490.989481157	-8.028800042	0.055503567	-44.367775000	-2.315994800	0.001073818	0.015486879	-50.002455942
0.810000000	483659.167300035	3870.110003302	76296.315252633	76296.315252633	15489.082706093	-8.028710021	0.055657658	-44.367775000	-2.315994800	0.001087286	0.015486876	-50.002486655
0.820000000	483625.990847646	3869.989997468	76291.255896567	76291.255896567	15487.176090477	-8.028619983	0.055813892	-44.367775000	-2.315994800	0.001100706	0.015486874	-50.002517368
0.830000000	483593.001239813	3869.869988513	76286.196635292	76286.196635292	15485.269349383	-8.028529958	0.055972270	-44.367775000	-2.315994800	0.001114062	0.015486872	-50.002548080
0.840000000	483560.246042000	3869.749970065	76281.137385875	76281.137385875	15483.362214445	-8.028439973	0.056132792	-44.367775000	-2.315994800	0.001127452	0.015486869	-50.002578793
0.850000000	483527.619736437	3869.629955220	76276.078111726	76276.078111726	15481.454840826	-8.028350011	0.056295458	-44.367775000	-2.315994800	0.001140911	0.015486867	-50.002609506
0.860000000	483494.872822196	3869.509976527	76271.018840417	76271.018840417	15479.547819398	-8.028260014	0.056460269	-44.367775000	-2.315994800	0.001154392	0.015486864	-50.002640219
0.870000000	483462.162644367	3869.390023900	76265.959573457	76265.959573457	15477.641118208	-8.028169985	0.056627223	-44.367775000	-2.315994800	0.001167851	0.015486862	-50.002670932
0.880000000	483430.053078113	3869.270044760	76260.900285067	76260.900285067	15475.734077958	-8.028079990	0.056796322	-44.367775000	-2.315994800	0.001181247	0.015486859	-50.002701645
0.890000000	483398.761848283	3869.150029715	76255.841005535	76255.841005535	15473.826699413	-8.027990029	0.056967566	-44.367775000	-2.315994800	0.001194605	0.015486857	-50.002732357
0.900000000	483368.148282179	3869.030011359	76250.781809034	76250.781809034	15471.919610830	-8.027900039	0.057140956	-44.367775000	-2.315994800	0.001208006	0.015486854	-50.002763070
0.910000000	483337.871448052	3868.910002470	76245.722566190	76245.722566190	15470.012887511	-8.027810012	0.057316491	-44.367775000	-2.315994800	0.001221467	0.015486852	-50.002793783
0.920000000	483307.462392722	3868.789996631	76240.663010789	76240.663010789	15468.106114023	-8.027719989	0.057494171	-44.367775000	-2.315994800	0.001234947	0.015486849	-50.002824496
0.930000000	483277.090359254	3868.669986750	76235.603657046	76235.603657046	15466.199289977	-8.027629972	0.057673996	-44.367775000	-2.315994800	0.001248402	0.015486846	-50.002855209
0.940000000	483247.421606003	3868.549967237	76230.545503446	76230.545503446	15464.292698891	-8.027539936	0.057855967	-44.367775000	-2.315994800	0.001261794	0.015486844	-50.002885922
0.950000000	483218.540212378	3868.429955325	76225.486967602	76225.486967602	15462.385467133	-8.027449961	0.058040084	-44.367775000	-2.315994800	0.001275152	0.015486841	-50.002916635
0.960000000	483190.069279402	3868.309982306	76220.425067276	76220.425067276	15460.476222218	-8.027360172	0.058226347	-44.367775000	-2.315994800	0.001288559	0.015486839	-50.002947348
0.970000000	483161.683562586	3868.190029162	76215.365329157	76215.365329157	15458.569196950	-8.027270174	0.058414757	-44.367775000	-2.315994800	0.001302023	0.015486836	-50.002978061
0.980000000	483133.146179842	3868.070044177	76210.317005789	76210.317005789	15456.670816629	-8.027179368	0.058605313	-44.367775000	-2.315994800	0.001315503	0.015486833	-50.003008774
0.990000000	483104.743312818	3867.950026845	76205.258442317	76205.258442317	15454.763986175	-8.027089355	0.058798016	-44.367775000	-2.315994800	0.001328954	0.015486830	-50.003039487
1.000000000	483077.058169395	3867.830009781	76200.150358208	76200.150358208	15452.818241795	-8.027002985	0.058992866	-44.367775000	-2.315994800	0.001342340	0.015486827	-50.003070200
1.010000000	483050.036135591	3867.710001690	76194.991861732	76194.991861732	15450.832724319	-8.026920327	0.059189863	-44.367775000	-2.315994800	0.001355700	0.015486824	-50.003100913
1.020000000	483023.232042686	3867.589995726	76189.805940093	76189.805940093	15448.825055998	-8.026839721	0.059389007	-44.367775000	-2.315994800	0.001369111	0.015486822	-50.003131626
1.030000000	482996.371902896	3867.469984799	76184.609154195	76184.609154195	15446.808617526	-8.026759941	0.059590299	-44.367775000	-2.315994800	0.001382578	0.015486819	-50.003162339
1.040000000	482969.341085237	3867.349964530	76179.413056661	76179.413056661	15444.793219602	-8.026680112	0.059793739	-44.367775000	-2.315994800	0.001396059	0.015486816	-50.003193052
1.050000000	482942.541294467	3867.229956150	76174.219820450	76174.219820450	15442.780226429	-8.026600062	0.059999327	-44.367775000	-2.315994800	0.001409506	0.015486813	-50.003223766
1.060000000	482916.567621262	3867.109988434	76169.026726351	76169.026726351	15440.766683143	-8.026519991	0.060207063	-44.367775000	-2.315994800	0.001422882	0.015486810	-50.003254479
1.070000000	482891.242057931	3866.990033816	76163.833045257	76163.833045257	15438.752231701	-8.026439962	0.060416947	-44.367775000	-2.315994800	0.001436244	0.015486807	-50.003285192
1.080000000	482866.025159856	3866.870043035	76158.639080245	76158.639080245	15436.737793998	-8.026359962	0.060628980	-44.367775000	-2.315994800	0.001449682	0.015486803	-50.003315905
1.090000000	482840.659538177	3866.750024015	76153.445030970	76153.445030970	15434.723712797	-8.026279977	0.060843162	-44.367775000	-2.315994800	0.001463145	0.015486800	-50.003346618
1.100000000	482815.103813104	3866.630008359	76148.251019884	76148.251019884	15432.710004048	-8.026199990	0.061059493	-44.367775000	-2.315994800	0.001476533	0.015486797	-50.003377331
1.110000000	482789.901543207	3866.510000945	76143.056994915	76143.056994915	15430.696349397	-8.026119999	0.061277974	-44.367775000	-2.315994800	0.001489890	0.015486794	-50.003408045
1.120000000	482765.707499389	3866.389994737	76137.862874637	76137.862874637	15428.682350961	-8.026040006	0.061498603	-44.367775000	-2.315994800	0.001503309	0.015486791	-50.003438758
1.130000000	482742.185594583	3866.269982644	76132.668898743	76132.668898743	15426.668066174	-8.025960017	0.061721383	-44.367775000	-2.315994800	0.001516782	0.015486788	-50.003469471
1.140000000	482718.666302882	3866.149962021	76127.475339712	76127.475339712	15424.653742078	-8.025880038	0.061946312	-44.367775000	-2.315994800	0.001530260	0.015486784	-50.003500184
1.150000000	482694.943938142	3866.029957772	76122.281853554	76122.281853554	15422.639637586	-8.025800042	0.062173392	-44.367775000	-2.315994800	0.001543699	0.015486781	-50.003530898
1.160000000	482671.075609401	3865.909994789	76117.087971237	76117.087971237	15420.625926507	-8.025720005	0.062402622	-44.367775000	-2.315994800	0.001557073	0.015486778	-50.003561611
1.170000000	482647.604357650	3865.790037737	76111.893856611	76111.893856611	15418.612271591	-8.025639962	0.062634003	-44.367775000	-2.315994800	0.001570438	0.015486774	-50.003592324
1.180000000	482625.068229663	3865.670041414	76106.699825373	76106.699825373	15416.598250439	-8.025559959	0.062867535	-44.367775000	-2.315994800	0.001583864	0.015486771	-50.003623038
1.190000000	482603.070028575	3865.550021305	76101.505809246	76101.505809246	15414.583947786	-8.025479979	0.063103217	-44.367775000	-2.315994800	0.001597337	0.015486768	-50.003653751
1.200000000	482581.003674080	3865.430007077	76096.311693022	76096.311693022	15412.569620672	-8.025399993	0.063341051	-44.367775000	-2.315994800	0.001610813	0.015486764	-50.003684464
1.210000000	482558.744098905	3865.310000221	76091.117748684	76091.117748684	15410.555553167	-8.025320000	0.063581037	-44.367775000	-2.315994800	0.001624248	0.015486761	-50.003715178
1.220000000	482536.397403466	3865.189993649	76085.924222368	76085.924222368	15408.541899969	-8.025240006	0.063823174	-44.367775000	-2.315994800	0.001637619	0.015486758	-50.003745891
1.230000000	482514.451558603	3865.069980269	76080.730711823	76080.730711823	15406.528195284	-8.025160020	0.064067464	-44.367775000	-2.315994800	0.001650987	0.015486754	-50.003776604
1.240000000	482493.313311012	3864.949959789	76075.536787834	76075.536787834	15404.514014298	-8.025080040	0.064313906	-44.367775000	-2.315994800	0.001664418	0.015486751	-50.003807318
1.250000000	482472.601686318	3864.829960269	76070.342670986	76070.342670986	15402.499832606	-8.025000040	0.064562501	-44.367775000	-2.315994800	0.001677893	0.015486747	-50.003838031
1.260000000	482451.822629250	3864.710001243	76065.148650233	76065.148650233	15400.486127182	-8.024919999	0.064813248	-44.367775000	-2.315994800	0.001691368	0.015486742	-50.003868745
1.270000000	482430.838224313	3864.590040800	76059.954624611	76059.954624611	15398.472474512	-8.024839959	0.065066148	-44.367775000	-2.315994800	0.001704797	0.015486740	-50.003899458
1.280000000	482409.749842653	3864.470039390	76054.760508146	76054.760508146	15396.458407799	-8.024759961	0.065321201	-44.367775000	-2.315994800	0.001718159	0.015486739	-50.003930172
1.290000000	482389.206383162	3864.350018790	76049.566603993	76049.566603993	15394.444080938	-8.024679981	0.065578409	-44.367775000	-2.315994800	0.001731537	0.015486732	-50.003960885
1.300000000	482369.666572537	3864.230005920	76044.373106547	76044.373106547	15392.429778046	-8.024599994	0.065837770	-44.367775000	-2.315994800	0.001744994	0.015486717	-50.003991599
1.310000000	482350.557428579	3864.109999502	76039.179564202	76039.179564202	15390.415755987	-8.024520000	0.066099285	-44.367775000	-2.315994800	0.001758441	0.015486728	-50.004022312
1.320000000	482331.308033725	3863.989992446	76033.985602032	76033.985602032	15388.402100399	-8.024440008	0.066362954	-44.367775000	-2.315994801	0.001771810	0.015486765	-50.004053026
1.330000000	482312.004808582	3863.869977671	76028.791487294	76028.791487294	15386.388390338	-8.024360022	0.066628777	-44.367775000	-2.315994800	0.001785179	0.015486701	-50.004083739
1.340000000	482292.776688238	3863.749957911	76023.597474952	76023.597474952	15384.374287519	-8.024280042	0.066896755	-44.367775000	-2.315994797	0.001798618	0.015486551	-50.004114453
1.350000000	482273.517958551	3863.629963676	76018.403438178	76018.403438178	15382.359962003	-8.024200036	0.067166888	-44.367775000	-2.315994801	0.001812096	0.015486788	-50.004145166
1.360000000	482254.156880501	3863.510007674	76013.209326236	76013.209326236	15380.345673344	-8.024119992	0.067439177	-44.367775000	-2.315994811	0.001825567	0.015487319	-50.004175880
1.370000000	482234.819462707	3863.390042952	76008.015464733	76008.015464733	15378.331680481	-8.024039957	0.067713621	-44.367775000	-2.315994794	0.001838988	0.015486350	-50.004206593
1.380000000	482215.545671534	3863.270037043	76002.821987639	76002.821987639	15376.318038385	-8.023959963	0.067990221	-44.367775000	-2.315994739	0.001852350	0.015483215	-50.004237307
1.390000000	482196.088355646	3863.150016502	75997.628412455	75997.628412455	15374.304304862	-8.023879983	0.068268977	-44.367775000	-2.315994695	0.001865729	0.015480666	-50.004268020
1.400000000	482176.524356667	3863.030004871	75992.434424336	75992.434424336	15372.290177558	-8.023799995	0.068549889	-44.367775000	-2.315994692	0.001879173	0.015480477	-50.004298734
1.410000000	482157.760491620	3862.909998772	75987.240297983	75987.240297983	15370.275840784	-8.023720001	0.068832958	-44.367775000	-2.315994702	0.001892651	0.015481045	-50.004329448
1.420000000	482140.268397172	3862.789991112	75982.046262954	75982.046262954	15368.261558083	-8.023640009	0.069118184	-44.367775000	-2.315994702	0.001906119	0.015481078	-50.004360161
1.430000000	482123.360880568	3862.669974906	75976.852281743	75976.852281743	15366.247616239	-8.023560025	0.069405566	-44.367775000	-2.315994700	0.001919535	0.015480923	-50.004390875
1.440000000	482106.444037054	3862.549956465	75971.658282974	75971.658282974	15364.234013721	-8.023480044	0.069695106	-44.367775000	-2.315994699	0.001932895	0.015480912	-50.004421589
1.450000000	482089.398189104	3862.429967894	75966.464196704	75966.464196704	15362.220181033	-8.023400032	0.069986803	-44.367775000	-2.315994700	0.001946278	0.015480948	-50.004452303
1.460000000	482072.351313806	3862.310013956	75961.270094149	75961.270094149	15360.205927317	-8.023319986	0.070280659	-44.367775000	-2.315994700	0.001959726	0.015480945	-50.004483016
1.470000000	482055.779890045	3862.190044258	75956.076300540	75956.076300540	15358.191870095	-8.023239956	0.070576673	-44.367775000	-2.315994700	0.001973206	0.015480930	-50.004513730
1.480000000	482039.896514731	3862.070034448	75950.882845039	75950.882845039	15356.178245171	-8.023159966	0.070874844	-44.367775000	-2.315994700	0.001986672	0.015480926	-50.004544444
1.490000000	482024.401055964	3861.950014428	75945.689210762	75945.689210762	15354.164495047	-8.023079986	0.071175174	-44.367775000	-2.315994700	0.002000082	0.015480924	-50.004575158
1.500000000	482009.010837720	3861.830003917	75940.495177989	75940.495177989	15352.150324084	-8.022999996	0.071477664	-44.367775000	-2.315994700	0.002013441	0.015480920	-50.004605871
1.510000000	481993.554708592	3861.709998015	75935.301080573	75935.301080573	15350.135976290	-8.022920002	0.071782313	-44.367775000	-2.315994700	0.002026828	0.015480915	-50.004636585
1.520000000	481978.092087591	3861.589989632	75930.107079968	75930.107079968	15348.121728079	-8.022840010	0.072089121	-44.367775000	-2.315994700	0.002040280	0.015480911	-50.004667299
1.530000000	481963.005049038	3861.469972052	75924.913013620	75924.913013620	15346.107825869	-8.022760028	0.072398088	-44.367775000	-2.315994700	0.002053761	0.015480907	-50.004698013
1.540000000	481948.475455678	3861.349955529	75919.718925304	75919.718925304	15344.094207506	-8.022680044	0.072709216	-44.367775000	-2.315994700	0.002067225	0.015480902	-50.004728727
1.550000000	481934.370407827	3861.229972796	75914.525170652	75914.525170652	15342.080394810	-8.022600027	0.073022503	-44.367775000	-2.315994700	0.002080626	0.015480898	-50.004759441
1.560000000	481920.495971621	3861.110019965	75909.331723440	75909.331723440	15340.066201799	-8.022519980	0.073337952	-44.367775000	-2.315994700	0.002093981	0.015480894	-50.004790155
1.570000000	481906.615695284	3860.990044796	75904.138046178	75904.138046178	15338.051860323	-8.022439955	0.073655561	-44.367775000	-2.315994700	0.002107389	0.015480889	-50.004820868
1.580000000	481892.708582947	3860.870031686	75898.943988852	75898.943988852	15336.037629937	-8.022359968	0.073975332	-44.367775000	-2.315994700	0.002120856	0.015480885	-50.004851582
1.590000000	481879.014663742	3860.750012551	75893.749901927	75893.749901927	15334.023758070	-8.022279987	0.074297264	-44.367775000	-2.315994700	0.002134275	0.015480880	-50.004882296
1.600000000	481865.704529941	3860.630003040	75888.555903067	75888.555903067	15332.010142420	-8.022199997	0.074621358	-44.367775000	-2.315994700	0.002147631	0.015480876	-50.004913010
1.610000000	481852.845576420	3860.509997217	75883.361823922	75883.361823922	15329.996300510	-8.022120003	0.074947614	-44.367775000	-2.315994700	0.002161022	0.015480871	-50.004943724
1.620000000	481840.319352026	3860.389987990	75878.167753221	75878.167753221	15327.982087613	-8.022040012	0.075276032	-44.367775000	-2.315994700	0.002174481	0.015480866	-50.004974438
1.630000000	481827.826597888	3860.269969186	75872.974046217	75872.974046217	15325.967737947	-8.021960031	0.075606612	-44.367775000	-2.315994700	0.002187962	0.015480861	-50.005005152
1.640000000	481815.273268925	3860.149955181	75867.780601016	75867.780601016	15323.953523544	-8.021880045	0.075939355	-44.367775000	-2.315994700	0.002201419	0.015480857	-50.005035866
1.650000000	481802.779433455	3860.029978260	75862.586876658	75862.586876658	15321.939712508	-8.021800022	0.076274262	-44.367775000	-2.315994700	0.002214815	0.015480852	-50.005066580
1.660000000	481790.536720046	3859.910025576	75857.392799029	75857.392799029	15319.926108281	-8.021719974	0.076611332	-44.367775000	-2.315994700	0.002228172	0.015480847	-50.005097294
1.670000000	481778.776927737	3859.790044645	75852.198724546	75852.198724546	15317.912125237	-8.021639955	0.076950565	-44.367775000	-2.315994700	0.002241574	0.015480843	-50.005128008
1.680000000	481767.423871607	3859.670028832	75847.004725301	75847.004725301	15315.897856894	-8.021559971	0.077291962	-44.367775000	-2.315994700	0.002255036	0.015480838	-50.005158722
1.690000000	481756.144668463	3859.550010856	75841.810634127	75841.810634127	15313.883949316	-8.021479989	0.077635524	-44.367775000	-2.315994700	0.002268516	0.015480833	-50.005189436
1.700000000	481744.754828953	3859.430002225	75836.616585269	75836.616585269	15311.870352488	-8.021399998	0.077981251	-44.367775000	-2.315994700	0.002281970	0.015480829	-50.005220150
1.710000000	481733.223173312	3859.309996361	75831.422924836	75831.422924836	15309.856477230	-8.021320004	0.078329142	-44.367775000	-2.315994700	0.002295360	0.015480824	-50.005250865
1.720000000	481721.913454667	3859.189986170	75826.229475315	75826.229475315	15307.842225928	-8.021240014	0.078679199	-44.367775000	-2.315994700	0.002308718	0.015480819	-50.005281579
1.730000000	481711.424749544	3859.069966387	75821.035703133	75821.035703133	15305.827879941	-8.021160034	0.079031421	-44.367775000	-2.315994700	0.002322125	0.015480814	-50.005312293
1.740000000	481701.606393668	3858.949955498	75815.841609422	75815.841609422	15303.813706971	-8.021080045	0.079385809	-44.367775000	-2.315994700	0.002335590	0.015480809	-50.005343007
1.750000000	481691.815264524	3858.829984160	75810.647548070	75810.647548070	15301.799921517	-8.021000016	0.079742363	-44.367775000	-2.315994700	0.002349069	0.015480804	-50.005373721
1.760000000	481681.838835966	3858.710030665	75805.453546330	75805.453546330	15299.786298030	-8.020919969	0.080101083	-44.367775000	-2.315994700	0.002362519	0.015480799	-50.005404435
1.770000000	481671.769417039	3858.590043881	75800.259444714	75800.259444714	15297.772365909	-8.020839956	0.080461970	-44.367775000	-2.315994700	0.002375905	0.015480795	-50.005435150
1.780000000	481661.881227255	3858.470025965	75795.065421917	75795.065421917	15295.758103936	-8.020759974	0.080825024	-44.367775000	-2.315994700	0.002389265	0.015480789	-50.005465864
1.790000000	481652.513128190	3858.350009330	75789.871805840	75789.871805840	15293.743767730	-8.020679991	0.081190246	-44.367775000	-2.315994700	0.002402674	0.015480781	-50.005496578
1.800000000	481643.580978047	3858.230001460	75784.678345672	75784.678345672	15291.729616846	-8.020599999	0.081557635	-44.367775000	-2.315994700	0.002416141	0.015480777	-50.005527292
1.810000000	481634.777459712	3858.109995420	75779.484526045	75779.484526045	15289.715858342	-8.020520005	0.081927191	-44.367775000	-2.315994700	0.002429635	0.015480783	-50.005558007
1.820000000	481625.954247079	3857.989984149	75774.290420470	75774.290420470	15287.702226790	-8.020440016	0.082298916	-44.367775000	-2.315994700	0.002443078	0.015480775	-50.005588721
1.830000000	481617.073607097	3857.869963778	75769.096372281	75769.096372281	15285.688264334	-8.020360036	0.082672810	-44.367775000	-2.315994700	0.002456400	0.015480726	-50.005619435
1.840000000	481608.304827619	3857.749956590	75763.902365937	75763.902365937	15283.673986405	-8.020280043	0.083048873	-44.367775000	-2.315994700	0.002469778	0.015480733	-50.005650149
1.850000000	481599.892223389	3857.629990197	75758.708256116	75758.708256116	15281.659646126	-8.020200010	0.083427105	-44.367775000	-2.315994700	0.002483413	0.015480893	-50.005680864
1.860000000	481591.879207450	3857.510035006	75753.514263600	75753.514263600	15279.645523926	-8.020119965	0.083807506	-44.367775000	-2.315994700	0.002496805	0.015480829	-50.005711578
1.870000000	481584.201765160	3857.390043253	75748.320688595	75748.320688595	15277.631826919	-8.020039957	0.084190077	-44.367775000	-2.315994700	0.002509454	0.015480205	-50.005742292
1.880000000	481576.690606495	3857.270023496	75743.127211441	75743.127211441	15275.618168617	-8.019959977	0.084574819	-44.367775000	-2.315994700	0.002523135	0.015480471	-50.005773007
1.890000000	481569.161168832	3857.150005389	75737.933345746	75737.933345746	15273.604044817	-8.019879992	0.084961730	-44.367775000	-2.315994700	0.002539325	0.015482790	-50.005803721
1.900000000	481561.617593525	3857.029999666	75732.739232577	75732.739232577	15271.589819773	-8.019799999	0.085350812	-44.367775000	-2.315994700	0.002551354	0.015481573	-50.005834436
1.910000000	481554.170236909	3856.910004200	75727.545197294	75727.545197294	15269.576054129	-8.019720006	0.085742065	-44.367775000	-2.315994700	0.002554447	0.015472856	-50.005865149
1.920000000	481547.116299997	3856.789985163	75722.351184011	75722.351184011	15267.562433763	-8.019640018	0.086135490	-44.367775000	-2.315994700	0.002574170	0.015478123	-50.005895864
1.930000000	481540.719927070	3856.669923972	75717.157067497	75717.157067497	15265.548432292	-8.019560039	0.086531087	-44.367775000	-2.315994700	0.002626390	0.015510707	-50.005926583
1.940000000	481534.689060273	3856.549949197	75711.963110448	75711.963110448	15263.534121260	-8.019480042	0.086928856	-44.367775000	-2.315994700	0.002612855	0.015488135	-50.005957294
1.950000000	481528.608276143	3856.430138915	75706.769577294	75706.769577294	15261.519781044	-8.019400003	0.087328796	-44.367775000	-2.315994700	0.002481263	0.015366470	-50.005987992
1.960000000	481522.396172181	3856.310062329	75701.576072743	75701.576072743	15259.505717831	-8.019319961	0.087730910	-44.367775000	-2.315994700	0.002608336	0.015461765	-50.006018720
1.970000000	481516.129185602	3856.189500447	75696.382144232	75696.382144232	15257.492094410	-8.019239959	0.088135196	-44.367775000	-2.315994700	0.003162010	0.015914940	-50.006049501
1.980000000	481510.128908239	3856.069975524	75691.188044733	75691.188044733	15255.478365151	-8.019159979	0.088541656	-44.367775000	-2.315994700	0.002700897	0.015516830	-50.006080156
1.990000000	481504.659842503	3855.952057683	75685.994092876	75685.994092876	15253.464068344	-8.019079994	0.088950290	-44.367775000	-2.315994700	0.000706535	0.013832512	-50.006110655
2.000000000	481499.430000000	3855.830000000	75680.800000000	75680.800000000	15251.450000000	-8.019000000	0.089361097	-44.367775000	-2.315994700	0.002684544	0.015480671	-50.006141580
2.010000000	481494.097693036	3855.698203163	75675.605420145	75675.605420145	15249.437034646	-8.018920002	0.089774079	-44.367775000	-2.315994700	0.013992958	0.024956152	-50.006174616
2.020000000	481488.724042018	3855.558487438	75670.410434705	75670.410434705	15247.425001193	-8.018840002	0.090189236	-44.367775000	-2.315994701	0.032887009	0.040795215	-50.006213399
2.030000000	481483.470869991	3855.414527994	75665.215231912	75665.215231912	15245.413467143	-8.018760001	0.090606567	-44.367775000	-2.315994701	0.055846223	0.060044470	-50.006260971
2.040000000	481478.500000000	3855.270000000	75660.020000000	75660.020000000	15243.402000000	-8.018680000	0.091026074	-44.367775000	-2.315994700	0.079350114	0.079750538	-50.006316956
2.050000000	481473.928630070	3855.127801969	75654.824887422	75654.824887422	15241.390258666	-8.018599999	0.091447756	-44.367775000	-2.315994699	0.100622155	0.097584178	-50.006377534
2.060000000	481469.695458144	3854.987725798	75649.629883521	75649.629883521	15239.378267630	-8.018519999	0.091871615	-44.367775000	-2.315994697	0.119861679	0.113712679	-50.006440985
2.070000000	481465.694557146	3854.848786728	75644.434937859	75644.434937859	15237.366142779	-8.018440000	0.092297649	-44.367775000	-2.315994697	0.138011987	0.128927456	-50.006507568
2.080000000	481461.820000000	3854.710000000	75639.240000000	75639.240000000	15235.354000000	-8.018360000	0.092725860	-44.367775000	-2.315994700	0.156016390	0.144019922	-50.006578645
2.090000000	481457.979505436	3854.570588961	75634.045030165	75634.045030165	15233.341930691	-8.018280000	0.093156248	-44.367775000	-2.315994705	0.174618856	0.159614201	-50.006656061
2.100000000	481454.135375407	3854.430609371	75628.850031210	75628.850031210	15231.329928289	-8.018200000	0.093588813	-44.367775000	-2.315994710	0.193765982	0.175665284	-50.006740149
2.110000000	481450.263557675	3854.290325095	75623.655016651	75623.655016651	15229.317961743	-8.018120000	0.094023556	-44.367775000	-2.315994710	0.213205017	0.191960878	-50.006830557
2.120000000	481446.340000000	3854.150000000	75618.460000000	75618.460000000	15227.306000000	-8.018040000	0.094460477	-44.367775000	-2.315994700	0.232683212	0.208288694	-50.006926647
2.130000000	481442.358035688	3854.009842188	75613.264991917	75613.264991917	15225.294018571	-8.017960000	0.094899576	-44.367775000	-2.315994678	0.252001225	0.224481359	-50.007027700
2.140000000	481438.380540228	3853.869836720	75608.069991637	75608.069991637	15223.282019215	-8.017880000	0.095340854	-44.367775000	-2.315994650	0.271173369	0.240551164	-50.007133638
2.150000000	481434.487774654	3853.729912891	75602.874995538	75602.874995538	15221.270010251	-8.017800000	0.095784311	-44.367775000	-2.315994622	0.290267371	0.256555317	-50.007244633
2.160000000	481430.760000000	3853.590000000	75597.680000000	75597.680000000	15219.258000000	-8.017720000	0.096229947	-44.367775000	-2.315994600	0.309350957	0.272551025	-50.007360934
2.170000000	481427.261476812	3853.450042285	75592.485002166	75592.485002166	15217.245995024	-8.017640000	0.096677763	-44.367775000	-2.315994590	0.328477543	0.288583379	-50.007482796
2.180000000	481423.992463681	3853.310043751	75587.290002241	75587.290002241	15215.233994851	-8.017560000	0.097127758	-44.367775000	-2.315994590	0.347643305	0.304649019	-50.007610237
2.190000000	481420.937218709	3853.170023341	75582.095001195	75582.095001195	15213.221997253	-8.017480000	0.097579934	-44.367775000	-2.315994595	0.366830107	0.320732468	-50.007743187
2.200000000	481418.080000000	3853.030000000	75576.900000000	75576.900000000	15211.210000000	-8.017400000	0.098034290	-44.367775000	-2.315994600	0.386019810	0.336818250	-50.007881560
2.210000000	481415.416525814	3852.889988670	75571.704999420	75571.704999420	15209.198001333	-8.017320000	0.098490827	-44.367775000	-2.315994602	0.405198110	0.352894161	-50.008025270
2.220000000	481412.988355048	3852.749988277	75566.509999400	75566.509999400	15207.186001380	-8.017240000	0.098949545	-44.367775000	-2.315994602	0.424366030	0.368961079	-50.008174315
2.230000000	481410.848506758	3852.609993746	75561.314999680	75561.314999680	15205.174000736	-8.017160000	0.099410445	-44.367775000	-2.315994601	0.443528422	0.385023154	-50.008328716
2.240000000	481409.050000000	3852.470000000	75556.120000000	75556.120000000	15203.162000000	-8.017080000	0.099873527	-44.367775000	-2.315994600	0.462690141	0.401084533	-50.008488505
2.250000000	481407.620076182	3852.330003036	75550.925000155	75550.925000155	15201.149999643	-8.017000000	0.100338791	-44.367775000	-2.315994600	0.481855016	0.417148487	-50.008653708
2.260000000	481406.482866126	3852.190003141	75545.730000161	75545.730000161	15199.137999630	-8.016920000	0.100806238	-44.367775000	-2.315994600	0.501022779	0.433214762	-50.008824325
2.270000000	481405.536723007	3852.050001676	75540.535000086	75540.535000086	15197.125999803	-8.016840000	0.101275867	-44.367775000	-2.315994600	0.520192136	0.449282228	-50.009000349
2.280000000	481404.680000000	3851.910000000	75535.340000000	75535.340000000	15195.114000000	-8.016760000	0.101747680	-44.367775000	-2.315994600	0.539361796	0.465349752	-50.009181769
2.290000000	481403.843325708	3851.769999187	75530.144999958	75530.144999958	15193.102000096	-8.016680000	0.102221676	-44.367775000	-2.315994599	0.558530740	0.481416452	-50.009368579
2.300000000	481403.086430447	3851.629999158	75524.949999957	75524.949999957	15191.090000099	-8.016600000	0.102697857	-44.367775000	-2.315994597	0.577699044	0.497482446	-50.009560778
2.310000000	481402.501319963	3851.489999551	75519.754999977	75519.754999977	15189.078000053	-8.016520000	0.103176221	-44.367775000	-2.315994597	0.596867060	0.513548103	-50.009758369
2.320000000	481402.180000000	3851.350000000	75514.560000000	75514.560000000	15187.066000000	-8.016440000	0.103656770	-44.367775000	-2.315994600	0.616035139	0.529613791	-50.009961356
2.330000000	481402.183652237	3851.210000218	75509.365000011	75509.365000011	15185.053999974	-8.016360000	0.104139504	-44.367775000	-2.315994606	0.635203558	0.545679759	-50.010169743
2.340000000	481402.450162085	3851.070000226	75504.170000012	75504.170000012	15183.041999973	-8.016280000	0.104624423	-44.367775000	-2.315994611	0.654372299	0.561745774	-50.010383527
2.350000000	481402.886590891	3850.930000120	75498.975000006	75498.975000006	15181.029999986	-8.016200000	0.105111529	-44.367775000	-2.315994610	0.673541266	0.577811486	-50.010602703
2.360000000	481403.400000000	3850.790000000	75493.780000000	75493.780000000	15179.018000000	-8.016120000	0.105600820	-44.367775000	-2.315994600	0.692710368	0.593876543	-50.010827269
2.370000000	481403.926440346	3850.649999942	75488.584999997	75488.584999997	15177.006000007	-8.016040000	0.106092298	-44.367775000	-2.315994577	0.711879533	0.609940734	-50.011057219
2.380000000	481404.517921212	3850.509999940	75483.389999997	75483.389999997	15174.994000007	-8.015960000	0.106585963	-44.367775000	-2.315994547	0.731048776	0.626004407	-50.011292559
2.390000000	481405.255441473	3850.369999968	75478.194999998	75478.194999998	15172.982000004	-8.015880000	0.107081813	-44.367775000	-2.315994519	0.750218137	0.642068048	-50.011533295
2.400000000	481406.220000000	3850.230000000	75473.000000000	75473.000000000	15170.970000000	-8.015800000	0.107579850	-44.367775000	-2.315994500	0.769387654	0.658132145	-50.011779432
2.410000000	481407.470586381	3850.090000016	75467.805000001	75467.805000001	15168.957999998	-8.015720000	0.108080073	-44.367775000	-2.315994496	0.788557355	0.674197015	-50.012030977
2.420000000	481408.978153066	3849.950000016	75462.610000001	75462.610000001	15166.945999998	-8.015640000	0.108582483	-44.367775000	-2.315994501	0.807727231	0.690262300	-50.012287924
2.430000000	481410.691643217	3849.810000009	75457.415000001	75457.415000001	15164.933999999	-8.015560000	0.109087081	-44.367775000	-2.315994505	0.826897262	0.706327470	-50.012550268
2.440000000	481412.560000000	3849.670000000	75452.220000000	75452.220000000	15162.922000000	-8.015480000	0.109593870	-44.367775000	-2.315994500	0.846067428	0.722391997	-50.012818000
2.450000000	481414.539339129	3849.529999996	75447.024999999	75447.024999999	15160.910000000	-8.015400000	0.110102850	-44.367775000	-2.315994480	0.865237714	0.738455529	-50.013091115
2.460000000	481416.614466525	3849.389999995	75441.829999998	75441.829999998	15158.898000001	-8.015320000	0.110614021	-44.367775000	-2.315994450	0.884408132	0.754518423	-50.013369616
2.470000000	481418.777360658	3849.249999997	75436.634999998	75436.634999998	15156.886000000	-8.015240000	0.111127381	-44.367775000	-2.315994420	0.903578700	0.770581214	-50.013653512
2.480000000	481421.020000000	3849.110000000	75431.440000000	75431.440000000	15154.874000000	-8.015160000	0.111642930	-44.367775000	-2.315994400	0.922749435	0.786644435	-50.013942810
2.490000000	481423.344244601	3848.970000002	75426.245000004	75426.245000004	15152.862000000	-8.015080000	0.112160667	-44.367775000	-2.315994395	0.941920351	0.802708444	-50.014237516
2.500000000	481425.791480834	3848.830000002	75421.050000008	75421.050000008	15150.850000000	-8.015000000	0.112680593	-44.367775000	-2.315994400	0.961091448	0.818772883	-50.014537629
2.510000000	481428.412976649	3848.690000001	75415.855000007	75415.855000007	15148.838000000	-8.014920000	0.113202711	-44.367775000	-2.315994405	0.980262723	0.834837217	-50.014843141
2.520000000	481431.260000000	3848.550000000	75410.660000000	75410.660000000	15146.826000000	-8.014840000	0.113727020	-44.367775000	-2.315994400	0.999434171	0.850900913	-50.015154046
2.530000000	481434.359776216	3848.409999998	75405.464999985	75405.464999985	15144.814000000	-8.014760000	0.114253523	-44.367775000	-2.315994380	1.018605792	0.866963610	-50.015470338
2.540000000	481437.643360140	3848.269999996	75400.269999971	75400.269999971	15142.802000000	-8.014680000	0.114782219	-44.367775001	-2.315994351	1.037777590	0.883025647	-50.015792014
2.550000000	481441.017763994	3848.129999997	75395.074999972	75395.074999972	15140.790000000	-8.014600000	0.115313109	-44.367775001	-2.315994321	1.056949574	0.899087537	-50.016119075
2.560000000	481444.390000000	3847.990000000	75389.880000000	75389.880000000	15138.778000000	-8.014520000	0.115846190	-44.367775000	-2.315994300	1.076121749	0.915149794	-50.016451520
2.570000000	481447.706650535	3847.850000007	75384.685000057	75384.685000057	15136.766000000	-8.014440000	0.116381463	-44.367774999	-2.315994294	1.095294121	0.931212768	-50.016789354
2.580000000	481451.072578606	3847.710000012	75379.490000106	75379.490000106	15134.754000000	-8.014360000	0.116918929	-44.367774998	-2.315994297	1.114466677	0.947276160	-50.017132602
2.590000000	481454.632217373	3847.570000012	75374.295000103	75374.295000103	15132.742000000	-8.014280000	0.117458588	-44.367774998	-2.315994302	1.133639405	0.963339510	-50.017481290
2.600000000	481458.530000000	3847.430000000	75369.100000000	75369.100000000	15130.730000000	-8.014200000	0.118000440	-44.367775000	-2.315994300	1.152812288	0.979402355	-50.017835443
2.610000000	481462.861746642	3847.289999976	75363.904999788	75363.904999788	15128.718000000	-8.014120000	0.118544487	-44.367775004	-2.315994285	1.171985332	0.995464356	-50.018195063
2.620000000	481467.528825436	3847.149999955	75358.709999603	75358.709999603	15126.706000000	-8.014040000	0.119090729	-44.367775007	-2.315994261	1.191158622	1.011525655	-50.018560048
2.630000000	481472.383991512	3847.009999956	75353.514999616	75353.514999616	15124.694000000	-8.013960000	0.119639166	-44.367775007	-2.315994231	1.210332261	1.027586515	-50.018930270
2.640000000	481477.280000000	3846.870000000	75348.320000000	75348.320000000	15122.682000000	-8.013880000	0.120189800	-44.367775000	-2.315994200	1.229506353	1.043647199	-50.019305605
2.650000000	481482.112925395	3846.730000090	75343.125000791	75343.125000791	15120.670000000	-8.013800000	0.120742630	-44.367774986	-2.315994172	1.248680911	1.059707916	-50.019686028
2.660000000	481486.952119649	3846.590000168	75337.930001482	75337.930001482	15118.658000000	-8.013720000	0.121297657	-44.367774973	-2.315994147	1.267855594	1.075768640	-50.020071926
2.670000000	481491.910254079	3846.450000163	75332.735001433	75332.735001433	15116.646000000	-8.013640000	0.121854880	-44.367774974	-2.315994123	1.287029972	1.091829290	-50.020463791
2.680000000	481497.100000000	3846.310000000	75327.540000000	75327.540000000	15114.634000000	-8.013560000	0.122414300	-44.367775000	-2.315994100	1.306203616	1.107889784	-50.020862110
2.690000000	481502.597958028	3846.169999665	75322.344997048	75322.344997048	15112.622000000	-8.013480000	0.122975917	-44.367775054	-2.315994076	1.325376444	1.123950063	-50.021266988
2.700000000	481508.336445968	3846.029999371	75317.149994467	75317.149994467	15110.610000000	-8.013400000	0.123539730	-44.367775101	-2.315994051	1.344549764	1.140010159	-50.021676978
2.710000000	481514.211710924	3845.889999392	75311.954994653	75311.954994653	15108.598000000	-8.013320000	0.124105741	-44.367775097	-2.315994025	1.363725230	1.156070131	-50.022090249
2.720000000	481520.120000000	3845.750000000	75306.760000000	75306.760000000	15106.586000000	-8.013240000	0.124673950	-44.367775000	-2.315994000	1.382904494	1.172130041	-50.022504969
2.730000000	481525.974617494	3845.610001252	75301.565011015	75301.565011015	15104.574000000	-8.013160001	0.125244357	-44.367774784	-2.315993975	1.402088496	1.188189930	-50.022920091
2.740000000	481531.757096481	3845.470002346	75296.370020648	75296.370020648	15102.562000000	-8.013080001	0.125816962	-44.367774500	-2.315993950	1.421275337	1.204249754	-50.023337723
2.750000000	481537.466027227	3845.330002268	75291.175019956	75291.175019956	15100.550000000	-8.013000001	0.126391766	-44.367774216	-2.315993925	1.440462414	1.220309444	-50.023760755
2.760000000	481543.100000000	3845.190000000	75285.980000000	75285.980000000	15098.538000000	-8.012920000	0.126968770	-44.367774000	-2.315993900	1.459647123	1.236368926	-50.024192081
2.770000000	481548.674353245	3845.049995328	75280.784958890	75280.784958890	15096.526000000	-8.012839998	0.127547974	-44.367773903	-2.315993875	1.478827577	1.252428141	-50.024633804
2.780000000	481554.271418110	3844.909991243	75275.589922942	75275.589922942	15094.514000000	-8.012759996	0.128129379	-44.367773900	-2.315993851	1.498004735	1.268487092	-50.025084870
2.790000000	481559.990273920	3844.769991537	75270.394925523	75270.394925523	15092.502000000	-8.012679996	0.128712984	-44.367773947	-2.315993826	1.517180266	1.284545804	-50.025543439
2.800000000	481565.930000000	3844.630000000	75265.200000000	75265.200000000	15090.490000000	-8.012600000	0.129298790	-44.367774000	-2.315993800	1.536355836	1.300604301	-50.026007669
2.810000000	481572.162657026	3844.490017435	75260.005153424	75260.005153424	15088.478000000	-8.012520009	0.129886798	-44.367774025	-2.315993773	1.555532752	1.316662615	-50.026476112
2.820000000	481578.652231080	3844.350032680	75254.810287584	75254.810287584	15086.466000000	-8.012440016	0.130477007	-44.367774025	-2.315993747	1.574710888	1.332720798	-50.026948902
2.830000000	481585.335689594	3844.210031585	75249.615277951	75249.615277951	15084.454000000	-8.012360016	0.131069417	-44.367774012	-2.315993722	1.593889761	1.348778903	-50.027426567
2.840000000	481592.150000000	3844.070000000	75244.420000000	75244.420000000	15082.442000000	-8.012280000	0.131664030	-44.367774000	-2.315993700	1.613068888	1.364836983	-50.027909635
2.850000000	481599.052987399	3843.929934933	75239.224427413	75239.224427413	15080.430000000	-8.012199967	0.132260845	-44.367773997	-2.315993681	1.632247909	1.380895040	-50.028398500
2.860000000	481606.085907569	3843.789878037	75234.028926723	75234.028926723	15078.418000000	-8.012119939	0.132859863	-44.367774000	-2.315993661	1.651426952	1.396952870	-50.028893025
2.870000000	481613.310873954	3843.649882122	75228.833962671	75228.833962671	15076.406000000	-8.012039941	0.133461084	-44.367774003	-2.315993635	1.670606267	1.413010219	-50.029392942
2.880000000	481620.790000000	3843.510000000	75223.640000000	75223.640000000	15074.394000000	-8.011960000	0.134064510	-44.367774000	-2.315993600	1.689786102	1.429066831	-50.029897978
2.890000000	481628.565237126	3843.370242832	75218.447136922	75218.447136922	15072.382000000	-8.011880121	0.134670141	-44.367773988	-2.315993552	1.708966587	1.445122566	-50.030407998
2.900000000	481636.597888644	3843.230455173	75213.254005525	75213.254005525	15070.370000000	-8.011800228	0.135277977	-44.367773975	-2.315993498	1.728147372	1.461177739	-50.030923405
2.910000000	481644.829095840	3843.090439928	75208.058871365	75208.058871365	15068.358000000	-8.011720220	0.135888017	-44.367773975	-2.315993445	1.747327988	1.477232779	-50.031444738
2.920000000	481653.200000000	3842.950000000	75202.860000000	75202.860000000	15066.346000000	-8.011640000	0.136500260	-44.367774000	-2.315993400	1.766507967	1.493288112	-50.031972537
2.930000000	481661.653251597	3842.809093738	75197.657024899	75197.657024899	15064.333999999	-8.011559547	0.137114707	-44.367774053	-2.315993370	1.785687192	1.509344029	-50.032506942
2.940000000	481670.137537855	3842.668301270	75192.455051179	75192.455051179	15062.321999999	-8.011479151	0.137731358	-44.367774100	-2.315993348	1.804866958	1.525400271	-50.033046501
2.950000000	481678.603055186	3842.528358167	75187.260551869	75187.260551869	15060.309999999	-8.011399179	0.138350215	-44.367774097	-2.315993327	1.824048908	1.541456446	-50.033589360
2.960000000	481687.000000000	3842.390000000	75182.080000000	75182.080000000	15058.298000000	-8.011320000	0.138971280	-44.367774000	-2.315993300	1.843234683	1.557512165	-50.034133667
2.970000000	481695.286912735	3842.253382214	75176.914763483	75176.914763483	15056.286000002	-8.011241691	0.139594553	-44.367773785	-2.315993260	1.862425221	1.573567134	-50.034678358
2.980000000	481703.455709934	3842.116339746	75171.745789761	75171.745789761	15054.274000004	-8.011163170	0.140220034	-44.367773501	-2.315993211	1.881618654	1.589621433	-50.035225534
2.990000000	481711.506652166	3841.976127404	75166.548921158	75166.548921158	15052.262000004	-8.011083064	0.140847723	-44.367773216	-2.315993156	1.900812416	1.605675234	-50.035778087
3.000000000	481719.440000000	3841.830000000	75161.300000000	75161.300000000	15050.250000000	-8.011000000	0.141477620	-44.367773000	-2.315993100	1.920003942	1.621728705	-50.036338908
3.010000000	481727.288628712	3841.676127406	75155.982921169	75155.982921169	15048.237999992	-8.010913064	0.142109724	-44.367772902	-2.315993047	1.939191367	1.637781980	-50.036910107
3.020000000	481735.215872407	3841.516339747	75150.613789779	75150.613789779	15046.225999985	-8.010823170	0.142744035	-44.367772898	-2.315992997	1.958375597	1.653835075	-50.037490666
3.030000000	481743.417679899	3841.353382216	75145.216763499	75145.216763499	15044.213999985	-8.010731691	0.143380553	-44.367772945	-2.315992948	1.977558232	1.669887980	-50.038078784
3.040000000	481752.090000000	3841.190000000	75139.816000000	75139.816000000	15042.202000000	-8.010640000	0.144019280	-44.367773000	-2.315992900	1.996740871	1.685940686	-50.038672661
3.050000000	481761.359822418	3841.028358164	75134.430551840	75134.430551840	15040.190000030	-8.010549179	0.144660215	-44.367773030	-2.315992851	2.015924791	1.701993186	-50.039270858
3.060000000	481771.078300438	3840.868301265	75129.059051125	75129.059051125	15038.178000057	-8.010459151	0.145303360	-44.367773034	-2.315992802	2.035109996	1.718045468	-50.039873375
3.070000000	481781.027628239	3840.709093733	75123.695024847	75123.695024847	15036.166000055	-8.010369547	0.145948714	-44.367773021	-2.315992751	2.054296171	1.734097518	-50.040480576
3.080000000	481790.990000000	3840.550000000	75118.332000000	75118.332000000	15034.154000000	-8.010280000	0.146596280	-44.367773000	-2.315992700	2.073483003	1.750149322	-50.041092824
3.090000000	481800.813487866	3840.390439939	75112.964871470	75112.964871470	15032.141999886	-8.010190220	0.147246057	-44.367772979	-2.315992648	2.092670180	1.766200877	-50.041710478
3.100000000	481810.609675841	3840.230455194	75107.594005722	75107.594005722	15030.129999787	-8.010100228	0.147898047	-44.367772966	-2.315992597	2.111857390	1.782252222	-50.042333893
3.110000000	481820.556025896	3840.070242852	75102.221137112	75102.221137112	15028.117999794	-8.010010121	0.148552247	-44.367772971	-2.315992547	2.131044325	1.798303406	-50.042963419
3.120000000	481830.830000000	3839.910000000	75096.848000000	75096.848000000	15026.106000000	-8.009920000	0.149208660	-44.367773000	-2.315992500	2.150230676	1.814354479	-50.043599408
3.130000000	481841.554038619	3839.749882081	75091.475962279	75091.475962279	15024.094000424	-8.009829941	0.149867284	-44.367773054	-2.315992456	2.169416446	1.830405449	-50.044241858
3.140000000	481852.630496198	3839.589877960	75086.104925988	75086.104925988	15022.082000796	-8.009739939	0.150528120	-44.367773100	-2.315992411	2.188602892	1.846456161	-50.044889355
3.150000000	481863.906705678	3839.429934860	75080.734426704	75080.734426704	15020.070000769	-8.009649967	0.151191169	-44.367773096	-2.315992360	2.207791582	1.862506422	-50.045540134
3.160000000	481875.230000000	3839.270000000	75075.364000000	75075.364000000	15018.058000000	-8.009560000	0.151856430	-44.367773000	-2.315992300	2.226984083	1.878556041	-50.046192426
3.170000000	481886.488170159	3839.110031737	75069.993279414	75069.993279414	15016.045998416	-8.009470016	0.152523904	-44.367772788	-2.315992227	2.246181292	1.894604918	-50.046845218
3.180000000	481897.730839367	3838.950032965	75064.622290325	75064.622290325	15014.033997031	-8.009380016	0.153193592	-44.367772508	-2.315992148	2.265381449	1.910653303	-50.047500505
3.190000000	481909.048088892	3838.790017710	75059.251156073	75059.251156073	15012.021997130	-8.009290009	0.153865493	-44.367772223	-2.315992070	2.284582129	1.926701528	-50.048161036
3.200000000	481920.530000000	3838.630000000	75053.880000000	75053.880000000	15010.010000000	-8.009200000	0.154539610	-44.367772000	-2.315992000	2.303780912	1.942749926	-50.048829560
3.210000000	481932.240624495	3838.469990970	75048.508920066	75048.508920066	15007.998005912	-8.009109996	0.155215942	-44.367771887	-2.315991945	2.322975970	1.958798702	-50.049508154
3.220000000	481944.139896332	3838.309990180	75043.137912714	75043.137912714	15005.986011082	-8.009019996	0.155894489	-44.367771869	-2.315991898	2.342167842	1.974847580	-50.050196200
3.230000000	481956.161720003	3838.149994301	75037.766949004	75037.766949004	15003.974010711	-8.008929998	0.156575252	-44.367771917	-2.315991852	2.361357656	1.990896162	-50.050892406
3.240000000	481968.240000000	3837.990000000	75032.396000000	75032.396000000	15001.962000000	-8.008840000	0.157258230	-44.367772000	-2.315991800	2.380546541	2.006944055	-50.051595478
3.250000000	481980.331206860	3837.830004384	75027.025040321	75027.025040321	14999.949977936	-8.008750001	0.157943423	-44.367772087	-2.315991735	2.399735669	2.022990986	-50.052304078
3.260000000	481992.482075303	3837.670006314	75021.654058821	75021.654058821	14997.937958642	-8.008660001	0.158630833	-44.367772141	-2.315991661	2.418926403	2.039037158	-50.053016680
